[{"type":"Feature","properties":{"name":"Gonjeh"},"geometry":{"type":"Point","coordinates":[-10.835000000378074,6.64809999955809]}},{"type":"Feature","properties":{"name":"Ahmiddiya"},"geometry":{"type":"Point","coordinates":[-10.823999999819303,6.868900000221314]}},{"type":"Feature","properties":{"name":"Malema"},"geometry":{"type":"Point","coordinates":[-10.973699999707577,6.67489999980239]}},{"type":"Feature","properties":{"name":"Beh Town"},"geometry":{"type":"Point","coordinates":[-10.984900000270565,6.618099999642981]}},{"type":"Feature","properties":{"name":"Yomo Town"},"geometry":{"type":"Point","coordinates":[-10.765100000355821,6.947600000348963]}},{"type":"Feature","properties":{"name":"Votor"},"geometry":{"type":"Point","coordinates":[-11.032400000239829,6.615900000417477]}},{"type":"Feature","properties":{"name":"Liberia Govt"},"geometry":{"type":"Point","coordinates":[-10.830400000414821,6.867199999844545]}},{"type":"Feature","properties":{"name":"Gohnzipo"},"geometry":{"type":"Point","coordinates":[-10.92550000021178,6.662400000297854]}},{"type":"Feature","properties":{"name":"Gogehn"},"geometry":{"type":"Point","coordinates":[-10.835000000378074,6.64809999955809]}},{"type":"Feature","properties":{"name":"St. Lukes"},"geometry":{"type":"Point","coordinates":[-10.820799999885809,6.863299999682629]}},{"type":"Feature","properties":{"name":"Sasstown"},"geometry":{"type":"Point","coordinates":[-10.888900000372386,6.583799999756052]}},{"type":"Feature","properties":{"name":"Bonjeh Town"},"geometry":{"type":"Point","coordinates":[-10.855299999650926,6.488400000380731]}},{"type":"Feature","properties":{"name":"Jenneh #3"},"geometry":{"type":"Point","coordinates":[-10.853199999667062,6.537399999548888]}},{"type":"Feature","properties":{"name":"Sackie Town"},"geometry":{"type":"Point","coordinates":[-10.929699999928822,6.976099999984641]}},{"type":"Feature","properties":{"name":"Dagweh Town"},"geometry":{"type":"Point","coordinates":[-10.945600000277825,6.567499999716505]}},{"type":"Feature","properties":{"name":"Suehn"},"geometry":{"type":"Point","coordinates":[-10.702099999578408,6.626899999663506]}},{"type":"Feature","properties":{"name":"Befine"},"geometry":{"type":"Point","coordinates":[-10.89950000021835,6.862399999893559]}},{"type":"Feature","properties":{"name":"Mecca"},"geometry":{"type":"Point","coordinates":[-10.57929999972662,6.831300000010306]}},{"type":"Feature","properties":{"name":"Zordee"},"geometry":{"type":"Point","coordinates":[-10.782499999783335,6.676100000354579]}},{"type":"Feature","properties":{"name":"Fefeh Town"},"geometry":{"type":"Point","coordinates":[-10.741000000254209,6.651800000056902]}},{"type":"Feature","properties":{"name":"Weawolo"},"geometry":{"type":"Point","coordinates":[-10.773800000249668,6.624000000335784]}},{"type":"Feature","properties":{"name":"Kpaii"},"geometry":{"type":"Point","coordinates":[-9.231700000350541,6.976400000443941]}},{"type":"Feature","properties":{"name":"Guthrie Plantation"},"geometry":{"type":"Point","coordinates":[-10.945599999586294,6.739300000036899]}},{"type":"Feature","properties":{"name":"Zebay"},"geometry":{"type":"Point","coordinates":[-9.200200000116665,6.924799999941993]}},{"type":"Feature","properties":{"name":"Tokpaipolu"},"geometry":{"type":"Point","coordinates":[-9.872399999750305,6.654200000143225]}},{"type":"Feature","properties":{"name":"Palala"},"geometry":{"type":"Point","coordinates":[-9.287000000167073,7.001899999919994]}},{"type":"Feature","properties":{"name":"Botota"},"geometry":{"type":"Point","coordinates":[-9.376899999668099,6.653500000103359]}},{"type":"Feature","properties":{"name":"Haindii"},"geometry":{"type":"Point","coordinates":[-10.385400000024356,6.887899999952107]}},{"type":"Feature","properties":{"name":"Foequelleh"},"geometry":{"type":"Point","coordinates":[-9.226899999995782,7.126999999948064]}},{"type":"Feature","properties":{"name":"Totota"},"geometry":{"type":"Point","coordinates":[-9.941799999720024,6.810699999576101]}},{"type":"Feature","properties":{"name":"Belefanai"},"geometry":{"type":"Point","coordinates":[-9.436100000363838,7.262599999552627]}},{"type":"Feature","properties":{"name":"Bong Mines Medical Center"},"geometry":{"type":"Point","coordinates":[-10.356799999637184,6.807300000036262]}},{"type":"Feature","properties":{"name":"Salala"},"geometry":{"type":"Point","coordinates":[-10.09930525668946,6.755984299677817]}},{"type":"Feature","properties":{"name":"Bong Mines OPD"},"geometry":{"type":"Point","coordinates":[-10.356799999637184,6.807300000036262]}},{"type":"Feature","properties":{"name":"Fenutoli"},"geometry":{"type":"Point","coordinates":[-9.691299999786514,6.67910000044237]}},{"type":"Feature","properties":{"name":"Shankpallai"},"geometry":{"type":"Point","coordinates":[-9.335599999578712,7.371500000315381]}},{"type":"Feature","properties":{"name":"Gbanla Community"},"geometry":{"type":"Point","coordinates":[-9.748399999765523,7.004999999792564]}},{"type":"Feature","properties":{"name":"Jorwah"},"geometry":{"type":"Point","coordinates":[-9.233299999922714,7.355699999664995]}},{"type":"Feature","properties":{"name":"Zeanzue"},"geometry":{"type":"Point","coordinates":[-9.760599999663954,6.881200000171067]}},{"type":"Feature","properties":{"name":"Gbonota"},"geometry":{"type":"Point","coordinates":[-9.781699999804344,7.108699999910575]}},{"type":"Feature","properties":{"name":"Gbartala"},"geometry":{"type":"Point","coordinates":[-9.678500000208944,6.8903999999239]}},{"type":"Feature","properties":{"name":"Samay"},"geometry":{"type":"Point","coordinates":[-9.442499999658478,6.784300000317081]}},{"type":"Feature","properties":{"name":"Sanoyea"},"geometry":{"type":"Point","coordinates":[-9.981499999560841,6.974399999712833]}},{"type":"Feature","properties":{"name":"Janyea"},"geometry":{"type":"Point","coordinates":[-9.529699999902539,6.698900000246022]}},{"type":"Feature","properties":{"name":"Gbecohn"},"geometry":{"type":"Point","coordinates":[-9.433500000026447,6.668599999666751]}},{"type":"Feature","properties":{"name":"Bah-ta"},"geometry":{"type":"Point","coordinates":[-9.295099999730621,6.710700000316834]}},{"type":"Feature","properties":{"name":"Naama"},"geometry":{"type":"Point","coordinates":[-9.351999999898739,7.257999999666308]}},{"type":"Feature","properties":{"name":"Yila"},"geometry":{"type":"Point","coordinates":[-9.11289999972202,6.859399999922983]}},{"type":"Feature","properties":{"name":"Zowienta"},"geometry":{"type":"Point","coordinates":[-9.18460000011047,6.819099999576321]}},{"type":"Feature","properties":{"name":"Gbansuesuloma"},"geometry":{"type":"Point","coordinates":[-9.61569999977946,7.234599999878822]}},{"type":"Feature","properties":{"name":"Gbalatuah"},"geometry":{"type":"Point","coordinates":[-9.511199999909129,7.312200000319708]}},{"type":"Feature","properties":{"name":"Belemu"},"geometry":{"type":"Point","coordinates":[-9.205700000339013,7.19340000014459]}},{"type":"Feature","properties":{"name":"Phebe  OPD"},"geometry":{"type":"Point","coordinates":[-9.554099999842782,7.028099999716334]}},{"type":"Feature","properties":{"name":"Garmue"},"geometry":{"type":"Point","coordinates":[-9.166400000442055,7.233499999730992]}},{"type":"Feature","properties":{"name":"Charles B. Dunbar"},"geometry":{"type":"Point","coordinates":[-9.477400000340431,7.004599999893411]}},{"type":"Feature","properties":{"name":"LAM"},"geometry":{"type":"Point","coordinates":[-9.473199999773227,7.000699999909653]}},{"type":"Feature","properties":{"name":"Phebe"},"geometry":{"type":"Point","coordinates":[-9.554099999842782,7.028099999716334]}},{"type":"Feature","properties":{"name":"Africa Fundamental Baptist Mission"},"geometry":{"type":"Point","coordinates":[-9.458400000444527,6.979700000201434]}},{"type":"Feature","properties":{"name":"Chief Jallahlon"},"geometry":{"type":"Point","coordinates":[-10.489600000333375,7.065599999604544]}},{"type":"Feature","properties":{"name":"Gbangay"},"geometry":{"type":"Point","coordinates":[-10.308500000024244,7.184700000105624]}},{"type":"Feature","properties":{"name":"Weasue"},"geometry":{"type":"Point","coordinates":[-10.508499999721527,7.317699999612173]}},{"type":"Feature","properties":{"name":"Kungbor"},"geometry":{"type":"Point","coordinates":[-10.575900000385847,7.647200000164692]}},{"type":"Feature","properties":{"name":"Gbarma"},"geometry":{"type":"Point","coordinates":[-10.789299999803669,6.992699999912579]}},{"type":"Feature","properties":{"name":"Tarkpoima"},"geometry":{"type":"Point","coordinates":[-10.679699999716338,7.170100000322159]}},{"type":"Feature","properties":{"name":"Yangaya"},"geometry":{"type":"Point","coordinates":[-10.760199999723486,7.110600000025974]}},{"type":"Feature","properties":{"name":"Bambuta"},"geometry":{"type":"Point","coordinates":[-10.545799999991539,6.95490000004428]}},{"type":"Feature","properties":{"name":"Gbaryamah"},"geometry":{"type":"Point","coordinates":[-10.626999999611421,7.021800000420115]}},{"type":"Feature","properties":{"name":"Gokalah"},"geometry":{"type":"Point","coordinates":[-10.639499999769605,6.923700000224161]}},{"type":"Feature","properties":{"name":"Totoquelle"},"geometry":{"type":"Point","coordinates":[-10.401700000154172,7.051699999714098]}},{"type":"Feature","properties":{"name":"Fasama"},"geometry":{"type":"Point","coordinates":[-9.998299999900878,7.519599999968515]}},{"type":"Feature","properties":{"name":"Henry Town"},"geometry":{"type":"Point","coordinates":[-10.35249999957661,7.265199999791038]}},{"type":"Feature","properties":{"name":"Owensgrove"},"geometry":{"type":"Point","coordinates":[-10.324700000271335,6.270100000407476]}},{"type":"Feature","properties":{"name":"Jacob Lateh"},"geometry":{"type":"Point","coordinates":[-10.230000000373218,6.443400000176277]}},{"type":"Feature","properties":{"name":"Kpayeakwelleh"},"geometry":{"type":"Point","coordinates":[-9.987400000116029,7.137999999798157]}},{"type":"Feature","properties":{"name":"Bokay Town"},"geometry":{"type":"Point","coordinates":[-10.270600000371607,6.212099999557802]}},{"type":"Feature","properties":{"name":"Edina"},"geometry":{"type":"Point","coordinates":[-10.07620000005979,5.92489999995651]}},{"type":"Feature","properties":{"name":"Little Bassa"},"geometry":{"type":"Point","coordinates":[-10.215799999854513,6.031800000105609]}},{"type":"Feature","properties":{"name":"Compound # 4"},"geometry":{"type":"Point","coordinates":[-9.710299999995847,5.909599999993891]}},{"type":"Feature","properties":{"name":"Foster Town"},"geometry":{"type":"Point","coordinates":[-9.718999999865396,5.760900000242684]}},{"type":"Feature","properties":{"name":"Lloydsville"},"geometry":{"type":"Point","coordinates":[-10.131599999856126,6.118299999567652]}},{"type":"Feature","properties":{"name":"Desoe Town"},"geometry":{"type":"Point","coordinates":[-9.0,6.515899999667113]}},{"type":"Feature","properties":{"name":"Garduor"},"geometry":{"type":"Point","coordinates":[-9.459499999869884,6.421199999945635]}},{"type":"Feature","properties":{"name":"Senyah Community"},"geometry":{"type":"Point","coordinates":[-9.84300000043681,6.344900000030444]}},{"type":"Feature","properties":{"name":"LAC (Lib Agro Co)"},"geometry":{"type":"Point","coordinates":[-9.737800000366844,6.090100000129501]}},{"type":"Feature","properties":{"name":"Little Kola"},"geometry":{"type":"Point","coordinates":[-9.828700000106393,5.703699999883045]}},{"type":"Feature","properties":{"name":"Sue"},"geometry":{"type":"Point","coordinates":[-9.215100000298277,6.561499999658249]}},{"type":"Feature","properties":{"name":"New-Cess Community"},"geometry":{"type":"Point","coordinates":[-9.909399999616474,5.822799999572156]}},{"type":"Feature","properties":{"name":"Compound #2"},"geometry":{"type":"Point","coordinates":[-9.916299999570702,6.215899999655223]}},{"type":"Feature","properties":{"name":"Brenda King"},"geometry":{"type":"Point","coordinates":[-10.021700000313711,5.893499999818204]}},{"type":"Feature","properties":{"name":"Barseegiah"},"geometry":{"type":"Point","coordinates":[-9.635700000151639,6.340199999943226]}},{"type":"Feature","properties":{"name":"Compound # 3"},"geometry":{"type":"Point","coordinates":[-9.789800000227388,6.149500000226756]}},{"type":"Feature","properties":{"name":"SATMH - Mittal Steel"},"geometry":{"type":"Point","coordinates":[-10.027600000165105,5.870999999938652]}},{"type":"Feature","properties":{"name":"St. John"},"geometry":{"type":"Point","coordinates":[-10.016200000351063,6.040700000405773]}},{"type":"Feature","properties":{"name":"Joriam"},"geometry":{"type":"Point","coordinates":[-10.049200000118727,5.881000000277187]}},{"type":"Feature","properties":{"name":"Boeglay Town"},"geometry":{"type":"Point","coordinates":[-9.746400000326151,6.172100000311151]}},{"type":"Feature","properties":{"name":"Liberia Govt"},"geometry":{"type":"Point","coordinates":[-10.045900000380067,5.883999999555053]}},{"type":"Feature","properties":{"name":"Camphor Mission"},"geometry":{"type":"Point","coordinates":[-9.916299999615585,5.917099999743496]}},{"type":"Feature","properties":{"name":"Christian Extension Ministry"},"geometry":{"type":"Point","coordinates":[-10.042200000021637,5.879100000070133]}},{"type":"Feature","properties":{"name":"St. Peter"},"geometry":{"type":"Point","coordinates":[-10.042500000321995,5.8773000001401]}},{"type":"Feature","properties":{"name":"Fahn Jah"},"geometry":{"type":"Point","coordinates":[-11.26277523675013,7.017502377046218]}},{"type":"Feature","properties":{"name":"Tubmanville"},"geometry":{"type":"Point","coordinates":[-9.90050000032719,6.00759999966604]}},{"type":"Feature","properties":{"name":"Well Baby"},"geometry":{"type":"Point","coordinates":[-10.034200000313557,5.885300000350132]}},{"type":"Feature","properties":{"name":"Gonelor"},"geometry":{"type":"Point","coordinates":[-11.257899999985382,7.039300000170933]}},{"type":"Feature","properties":{"name":"Bangorma"},"geometry":{"type":"Point","coordinates":[-11.210286784582575,7.083324218760248]}},{"type":"Feature","properties":{"name":"Mambo"},"geometry":{"type":"Point","coordinates":[-11.296000000066908,6.998699999842466]}},{"type":"Feature","properties":{"name":"Jene-Wonde"},"geometry":{"type":"Point","coordinates":[-11.269200000185391,7.076300000113529]}},{"type":"Feature","properties":{"name":"Mbaloma"},"geometry":{"type":"Point","coordinates":[-10.99820000020962,6.9589000002566]}},{"type":"Feature","properties":{"name":"Zaway"},"geometry":{"type":"Point","coordinates":[-11.388899999557845,6.894899999670125]}},{"type":"Feature","properties":{"name":"Kpeneji"},"geometry":{"type":"Point","coordinates":[-11.252100000107136,6.930000000099327]}},{"type":"Feature","properties":{"name":"Bomboja"},"geometry":{"type":"Point","coordinates":[-11.085800000366456,6.622200000318578]}},{"type":"Feature","properties":{"name":"Kulangor"},"geometry":{"type":"Point","coordinates":[-11.388200000091016,6.92210000025598]}},{"type":"Feature","properties":{"name":"Tahn-Mafa"},"geometry":{"type":"Point","coordinates":[-11.226500000410088,6.980700000114837]}},{"type":"Feature","properties":{"name":"Damballa"},"geometry":{"type":"Point","coordinates":[-11.281800000383877,7.137300000138953]}},{"type":"Feature","properties":{"name":"Bamballa"},"geometry":{"type":"Point","coordinates":[-11.172699999811972,7.222199999925654]}},{"type":"Feature","properties":{"name":"Bendaja"},"geometry":{"type":"Point","coordinates":[-11.243699999884221,7.158000000103955]}},{"type":"Feature","properties":{"name":"Kawelihum"},"geometry":{"type":"Point","coordinates":[-11.027800000107664,7.403800000100032]}},{"type":"Feature","properties":{"name":"Fanti Town"},"geometry":{"type":"Point","coordinates":[-11.355600000362287,6.758599999880639]}},{"type":"Feature","properties":{"name":"Vargue"},"geometry":{"type":"Point","coordinates":[-10.95880000003403,7.159999999782879]}},{"type":"Feature","properties":{"name":"Kongo"},"geometry":{"type":"Point","coordinates":[-11.137699999905507,7.330700000196652]}},{"type":"Feature","properties":{"name":"Than Gola-Kanneh"},"geometry":{"type":"Point","coordinates":[-10.897900000342958,7.10729999974661]}},{"type":"Feature","properties":{"name":"Karnga"},"geometry":{"type":"Point","coordinates":[-11.065100000166021,6.881399999591853]}},{"type":"Feature","properties":{"name":"Bo Water Side"},"geometry":{"type":"Point","coordinates":[-11.372999999768799,7.011099999721438]}},{"type":"Feature","properties":{"name":"Gondama"},"geometry":{"type":"Point","coordinates":[-11.3558999995451,7.058699999564848]}},{"type":"Feature","properties":{"name":"Lofa Bridge"},"geometry":{"type":"Point","coordinates":[-10.881499999744994,7.069500000443339]}},{"type":"Feature","properties":{"name":"Tienni"},"geometry":{"type":"Point","coordinates":[-11.31190000023004,6.968799999895635]}},{"type":"Feature","properties":{"name":"Sinje"},"geometry":{"type":"Point","coordinates":[-11.136700000136996,6.818300000031464]}},{"type":"Feature","properties":{"name":"Madina"},"geometry":{"type":"Point","coordinates":[-11.065300000189582,6.717099999981414]}},{"type":"Feature","properties":{"name":"Tallah"},"geometry":{"type":"Point","coordinates":[-11.303254410583275,6.770878972941551]}},{"type":"Feature","properties":{"name":"Bendu"},"geometry":{"type":"Point","coordinates":[-11.211899999851887,6.762099999940566]}},{"type":"Feature","properties":{"name":"Diah"},"geometry":{"type":"Point","coordinates":[-11.349290732985205,6.877133191137528]}},{"type":"Feature","properties":{"name":"Jundu"},"geometry":{"type":"Point","coordinates":[-11.13129999957776,6.706099999977049]}},{"type":"Feature","properties":{"name":"Simbehun"},"geometry":{"type":"Point","coordinates":[-11.333799999621693,6.706200000078057]}},{"type":"Feature","properties":{"name":"Gorbowrogba"},"geometry":{"type":"Point","coordinates":[-8.139199999832222,6.062500000251379]}},{"type":"Feature","properties":{"name":"St. Timothys"},"geometry":{"type":"Point","coordinates":[-11.367399999757829,6.750399999960727]}},{"type":"Feature","properties":{"name":"Kumah Town"},"geometry":{"type":"Point","coordinates":[-8.243799999636376,5.936900000121761]}},{"type":"Feature","properties":{"name":"Christ the King"},"geometry":{"type":"Point","coordinates":[-8.137199999885933,6.063400000025839]}},{"type":"Feature","properties":{"name":"Putu Karlorwleh"},"geometry":{"type":"Point","coordinates":[-8.138899999984274,6.06229999979923]}},{"type":"Feature","properties":{"name":"Ziah Town"},"geometry":{"type":"Point","coordinates":[-7.854999999733989,5.764200000033592]}},{"type":"Feature","properties":{"name":"Toffoi Town"},"geometry":{"type":"Point","coordinates":[-8.086699999725147,5.970000000409714]}},{"type":"Feature","properties":{"name":"Putu Pennoken"},"geometry":{"type":"Point","coordinates":[-8.153700000144761,5.600699999773401]}},{"type":"Feature","properties":{"name":"Janzon"},"geometry":{"type":"Point","coordinates":[-8.041399999924828,6.227500000032523]}},{"type":"Feature","properties":{"name":"Beh Town (Cavalla)"},"geometry":{"type":"Point","coordinates":[-8.031199999877737,6.17640000014103]}},{"type":"Feature","properties":{"name":"Putu Jarwodee"},"geometry":{"type":"Point","coordinates":[-8.321099999831489,5.615000000429839]}},{"type":"Feature","properties":{"name":"MTM"},"geometry":{"type":"Point","coordinates":[-8.124300000282428,6.07800000034572]}},{"type":"Feature","properties":{"name":"Gbarzon Jarwodee"},"geometry":{"type":"Point","coordinates":[-8.593399999816036,6.113100000118471]}},{"type":"Feature","properties":{"name":"Toe Town"},"geometry":{"type":"Point","coordinates":[-8.555799999740861,6.408999999866877]}},{"type":"Feature","properties":{"name":"Gbarzon Polar"},"geometry":{"type":"Point","coordinates":[-8.566800000045859,6.162500000424742]}},{"type":"Feature","properties":{"name":"Zia Town"},"geometry":{"type":"Point","coordinates":[-8.293900000372933,6.193400000240014]}},{"type":"Feature","properties":{"name":"Tuzon"},"geometry":{"type":"Point","coordinates":[-8.251500000391712,6.170399999818383]}},{"type":"Feature","properties":{"name":"Gblebo Health"},"geometry":{"type":"Point","coordinates":[-7.955699999993579,4.73259999999552]}},{"type":"Feature","properties":{"name":"Gboloken"},"geometry":{"type":"Point","coordinates":[-8.191499999770146,6.107999999930217]}},{"type":"Feature","properties":{"name":"Zleh Town"},"geometry":{"type":"Point","coordinates":[-8.440099999756653,6.226900000310422]}},{"type":"Feature","properties":{"name":"Willsonville"},"geometry":{"type":"Point","coordinates":[-7.863499999877702,4.50079999996794]}},{"type":"Feature","properties":{"name":"Genoyah"},"geometry":{"type":"Point","coordinates":[-7.92420000031243,4.588999999701426]}},{"type":"Feature","properties":{"name":"Behwan"},"geometry":{"type":"Point","coordinates":[-7.869799999890065,4.638100000437218]}},{"type":"Feature","properties":{"name":"Garraway"},"geometry":{"type":"Point","coordinates":[-7.93359999996598,4.498799999570811]}},{"type":"Feature","properties":{"name":"Newaken"},"geometry":{"type":"Point","coordinates":[-7.932799999657698,4.692499999881199]}},{"type":"Feature","properties":{"name":"Nyankupo"},"geometry":{"type":"Point","coordinates":[-8.381999999709514,4.885300000028649]}},{"type":"Feature","properties":{"name":"Buah HC"},"geometry":{"type":"Point","coordinates":[-8.161499999948246,4.954299999991872]}},{"type":"Feature","properties":{"name":"Juduken"},"geometry":{"type":"Point","coordinates":[-8.040496049447706,4.607311950558928]}},{"type":"Feature","properties":{"name":"Sass Town"},"geometry":{"type":"Point","coordinates":[-8.426100000199421,4.673999999594941]}},{"type":"Feature","properties":{"name":"Rally Time"},"geometry":{"type":"Point","coordinates":[-8.221800000301842,4.575099999824455]}},{"type":"Feature","properties":{"name":"Feloken"},"geometry":{"type":"Point","coordinates":[-8.158499999974376,4.71050000028682]}},{"type":"Feature","properties":{"name":"Picnicess"},"geometry":{"type":"Point","coordinates":[-8.302494647402304,4.622552393039048]}},{"type":"Feature","properties":{"name":"Barclayville"},"geometry":{"type":"Point","coordinates":[-8.233000000030714,4.672500000366363]}},{"type":"Feature","properties":{"name":"Niful"},"geometry":{"type":"Point","coordinates":[-8.54100000026188,4.747199999717994]}},{"type":"Feature","properties":{"name":"Foya Kamara"},"geometry":{"type":"Point","coordinates":[-10.200499999954518,8.354899999905344]}},{"type":"Feature","properties":{"name":"Tellewoyan OPD"},"geometry":{"type":"Point","coordinates":[-9.74969999968418,8.424300000039942]}},{"type":"Feature","properties":{"name":"Tellewoyan"},"geometry":{"type":"Point","coordinates":[-9.747299999865319,8.426300000358799]}},{"type":"Feature","properties":{"name":"Foya Community"},"geometry":{"type":"Point","coordinates":[-10.212899999725279,8.363199999630501]}},{"type":"Feature","properties":{"name":"Shelloe"},"geometry":{"type":"Point","coordinates":[-10.20540000023658,8.383800000284994]}},{"type":"Feature","properties":{"name":"Porluma Health Post"},"geometry":{"type":"Point","coordinates":[-10.107499999731257,8.436300000224094]}},{"type":"Feature","properties":{"name":"Gbanken"},"geometry":{"type":"Point","coordinates":[-8.112300000100905,4.682099999865031]}},{"type":"Feature","properties":{"name":"Sarkonedu"},"geometry":{"type":"Point","coordinates":[-9.673299999881554,8.461699999581247]}},{"type":"Feature","properties":{"name":"Faith"},"geometry":{"type":"Point","coordinates":[-10.066400000246926,8.333100000030186]}},{"type":"Feature","properties":{"name":"Gondolahun"},"geometry":{"type":"Point","coordinates":[-10.05560000042826,7.965400000364825]}},{"type":"Feature","properties":{"name":"Warsonga"},"geometry":{"type":"Point","coordinates":[-10.283500000244029,8.361199999580409]}},{"type":"Feature","properties":{"name":"Fangonda Public"},"geometry":{"type":"Point","coordinates":[-10.173500000408241,8.221499999615583]}},{"type":"Feature","properties":{"name":"Kolahun"},"geometry":{"type":"Point","coordinates":[-10.083700000162713,8.293599999861325]}},{"type":"Feature","properties":{"name":"Lamgbamba"},"geometry":{"type":"Point","coordinates":[-10.275050703128732,8.212577464509515]}},{"type":"Feature","properties":{"name":"Bolahun"},"geometry":{"type":"Point","coordinates":[-10.162199999953382,8.228399999839462]}},{"type":"Feature","properties":{"name":"Kaintahun"},"geometry":{"type":"Point","coordinates":[-10.216000000025996,8.162199999592293]}},{"type":"Feature","properties":{"name":"Foya Tengia"},"geometry":{"type":"Point","coordinates":[-10.275000000354126,8.277300000299402]}},{"type":"Feature","properties":{"name":"Yekpedu"},"geometry":{"type":"Point","coordinates":[-10.224799999662878,8.233900000209474]}},{"type":"Feature","properties":{"name":"Korworhun"},"geometry":{"type":"Point","coordinates":[-10.150500000139855,8.316099999905623]}},{"type":"Feature","properties":{"name":"Sorlumba"},"geometry":{"type":"Point","coordinates":[-10.160799999813449,8.495899999977887]}},{"type":"Feature","properties":{"name":"Isaac Kpema"},"geometry":{"type":"Point","coordinates":[-10.209599999673172,8.360599999665658]}},{"type":"Feature","properties":{"name":"Lawalazu"},"geometry":{"type":"Point","coordinates":[-9.844799999692306,8.451400000152605]}},{"type":"Feature","properties":{"name":"Vezala"},"geometry":{"type":"Point","coordinates":[-9.902499999669535,8.370400000287932]}},{"type":"Feature","properties":{"name":"Fassavulu"},"geometry":{"type":"Point","coordinates":[-10.066399999710528,8.389800000305904]}},{"type":"Feature","properties":{"name":"Nyendemolayhun"},"geometry":{"type":"Point","coordinates":[-9.960100000225925,8.441999999842514]}},{"type":"Feature","properties":{"name":"Gbanway"},"geometry":{"type":"Point","coordinates":[-9.426399999992773,7.687800000029929]}},{"type":"Feature","properties":{"name":"Popalahun Public"},"geometry":{"type":"Point","coordinates":[-10.233999999897208,8.175799999632144]}},{"type":"Feature","properties":{"name":"Kamatahun"},"geometry":{"type":"Point","coordinates":[-10.296199999700749,8.136499999583672]}},{"type":"Feature","properties":{"name":"Vahun"},"geometry":{"type":"Point","coordinates":[-10.499600000207781,8.062399999724644]}},{"type":"Feature","properties":{"name":"Lukasu Public"},"geometry":{"type":"Point","coordinates":[-10.241900000282229,8.047400000055673]}},{"type":"Feature","properties":{"name":"Fissebu"},"geometry":{"type":"Point","coordinates":[-9.468200000372782,7.823600000035606]}},{"type":"Feature","properties":{"name":"Borkeza"},"geometry":{"type":"Point","coordinates":[-9.458799999663508,7.907400000363546]}},{"type":"Feature","properties":{"name":"Gorlu"},"geometry":{"type":"Point","coordinates":[-9.478800000256076,7.519800000253198]}},{"type":"Feature","properties":{"name":"Zolowo"},"geometry":{"type":"Point","coordinates":[-9.588200000247293,7.652899999701107]}},{"type":"Feature","properties":{"name":"Yarpua"},"geometry":{"type":"Point","coordinates":[-9.422599999788369,7.655100000056902]}},{"type":"Feature","properties":{"name":"Gbonyea Community"},"geometry":{"type":"Point","coordinates":[-9.549399999685887,7.50719999989968]}},{"type":"Feature","properties":{"name":"Salayea Community"},"geometry":{"type":"Point","coordinates":[-9.491699999633115,7.619299999786795]}},{"type":"Feature","properties":{"name":"Sucromo"},"geometry":{"type":"Point","coordinates":[-9.436100000060886,7.722099999597615]}},{"type":"Feature","properties":{"name":"Gonglota"},"geometry":{"type":"Point","coordinates":[-9.491599999877977,7.420500000173536]}},{"type":"Feature","properties":{"name":"Kpaiyea"},"geometry":{"type":"Point","coordinates":[-9.385900000258006,7.715899999709697]}},{"type":"Feature","properties":{"name":"Balagwalazu"},"geometry":{"type":"Point","coordinates":[-9.7141000001831,7.799199999709312]}},{"type":"Feature","properties":{"name":"Yeala"},"geometry":{"type":"Point","coordinates":[-9.401599999715796,7.822499999712263]}},{"type":"Feature","properties":{"name":"Curran Lutheran"},"geometry":{"type":"Point","coordinates":[-9.432600000016102,7.775099999614605]}},{"type":"Feature","properties":{"name":"Konia"},"geometry":{"type":"Point","coordinates":[-9.543399999567848,7.962700000433093]}},{"type":"Feature","properties":{"name":"Dougomai"},"geometry":{"type":"Point","coordinates":[-9.726899999593549,8.195999999734886]}},{"type":"Feature","properties":{"name":"Zenalormai"},"geometry":{"type":"Point","coordinates":[-9.836800000011705,8.329799999714929]}},{"type":"Feature","properties":{"name":"Kpademai"},"geometry":{"type":"Point","coordinates":[-9.908500000415852,8.212099999825686]}},{"type":"Feature","properties":{"name":"Luyema"},"geometry":{"type":"Point","coordinates":[-9.635000000322533,8.069299999585649]}},{"type":"Feature","properties":{"name":"Bazagizia"},"geometry":{"type":"Point","coordinates":[-9.836799999853186,8.358300000186656]}},{"type":"Feature","properties":{"name":"Barkedu"},"geometry":{"type":"Point","coordinates":[-9.638200000194356,8.293400000090687]}},{"type":"Feature","properties":{"name":"Kpotomai"},"geometry":{"type":"Point","coordinates":[-9.942499999856358,8.220499999920278]}},{"type":"Feature","properties":{"name":"Balakpalasu"},"geometry":{"type":"Point","coordinates":[-9.692500000439013,8.168500000144121]}},{"type":"Feature","properties":{"name":"Bondi Selma"},"geometry":{"type":"Point","coordinates":[-9.759999999915856,8.269699999784852]}},{"type":"Feature","properties":{"name":"Voinjama Free Pentacostal Mission"},"geometry":{"type":"Point","coordinates":[-9.755999999706509,8.418500000379902]}},{"type":"Feature","properties":{"name":"M\/S Community"},"geometry":{"type":"Point","coordinates":[-10.631399999890386,6.63129999989078]}},{"type":"Feature","properties":{"name":"Barziwen"},"geometry":{"type":"Point","coordinates":[-9.647840114102145,8.153302815223473]}},{"type":"Feature","properties":{"name":"Kpakamai"},"geometry":{"type":"Point","coordinates":[-9.876700000076054,8.296899999568833]}},{"type":"Feature","properties":{"name":"Sarco"},"geometry":{"type":"Point","coordinates":[-10.347100000259756,6.24330000023975]}},{"type":"Feature","properties":{"name":"Edward Banyan Kesselly Military Barracks"},"geometry":{"type":"Point","coordinates":[-10.568900000221241,6.210899999816764]}},{"type":"Feature","properties":{"name":"Fam Plan Assoc Lib"},"geometry":{"type":"Point","coordinates":[-10.350999999701921,6.528499999560112]}},{"type":"Feature","properties":{"name":"Division 28"},"geometry":{"type":"Point","coordinates":[-10.318999999658951,6.42159999960096]}},{"type":"Feature","properties":{"name":"Dr Barcolleh"},"geometry":{"type":"Point","coordinates":[-10.85590000003951,6.530399999709313]}},{"type":"Feature","properties":{"name":"Liberian Health Care Center"},"geometry":{"type":"Point","coordinates":[-10.59200000039761,6.21919999964882]}},{"type":"Feature","properties":{"name":"City"},"geometry":{"type":"Point","coordinates":[-10.352200000264103,6.530700000325359]}},{"type":"Feature","properties":{"name":"Dolos Town"},"geometry":{"type":"Point","coordinates":[-10.356499999573519,6.251699999709222]}},{"type":"Feature","properties":{"name":"Tuckers Town"},"geometry":{"type":"Point","coordinates":[-10.246600000088648,6.631400000288077]}},{"type":"Feature","properties":{"name":"Kendei"},"geometry":{"type":"Point","coordinates":[-10.210700000052801,6.687200000389996]}},{"type":"Feature","properties":{"name":"Samuel Cooper"},"geometry":{"type":"Point","coordinates":[-10.312299999903916,6.576900000061213]}},{"type":"Feature","properties":{"name":"Kakata"},"geometry":{"type":"Point","coordinates":[-10.033500000000956,6.547700000346196]}},{"type":"Feature","properties":{"name":"Du-Side"},"geometry":{"type":"Point","coordinates":[-10.469399999801672,6.353300000027656]}},{"type":"Feature","properties":{"name":"Pioneer"},"geometry":{"type":"Point","coordinates":[-10.359200000301543,6.262399999770325]}},{"type":"Feature","properties":{"name":"Zeeworth"},"geometry":{"type":"Point","coordinates":[-10.555099999904328,6.353400000237455]}},{"type":"Feature","properties":{"name":"Harbel"},"geometry":{"type":"Point","coordinates":[-10.324100000222391,6.231099999998085]}},{"type":"Feature","properties":{"name":"Charlesville"},"geometry":{"type":"Point","coordinates":[-10.380599999709892,6.196699999769748]}},{"type":"Feature","properties":{"name":"Unification Town"},"geometry":{"type":"Point","coordinates":[-10.352999999956117,6.246099999986853]}},{"type":"Feature","properties":{"name":"Marshall"},"geometry":{"type":"Point","coordinates":[-10.423100000093385,6.213099999854072]}},{"type":"Feature","properties":{"name":"Weala Community"},"geometry":{"type":"Point","coordinates":[-10.205499999967925,6.691599999720155]}},{"type":"Feature","properties":{"name":"Schifflin"},"geometry":{"type":"Point","coordinates":[-10.534200000291669,6.226200000394283]}},{"type":"Feature","properties":{"name":"Peters Town"},"geometry":{"type":"Point","coordinates":[-10.086499999731613,6.601099999826285]}},{"type":"Feature","properties":{"name":"Gbaye Town"},"geometry":{"type":"Point","coordinates":[-10.290300000088559,6.635800000328364]}},{"type":"Feature","properties":{"name":"Wohm"},"geometry":{"type":"Point","coordinates":[-10.018499999713208,6.597200000155931]}},{"type":"Feature","properties":{"name":"Yarnwullie"},"geometry":{"type":"Point","coordinates":[-10.196399999588735,6.563899999680197]}},{"type":"Feature","properties":{"name":"C.H. Rennie"},"geometry":{"type":"Point","coordinates":[-10.343100000034479,6.520300000198816]}},{"type":"Feature","properties":{"name":"SRC Factory"},"geometry":{"type":"Point","coordinates":[-10.128499999608341,6.654500000250579]}},{"type":"Feature","properties":{"name":"Wolola"},"geometry":{"type":"Point","coordinates":[-10.279599999571955,6.522900000015849]}},{"type":"Feature","properties":{"name":"Lakayta Town"},"geometry":{"type":"Point","coordinates":[-10.353200000038479,6.671899999975837]}},{"type":"Feature","properties":{"name":"Velleta"},"geometry":{"type":"Point","coordinates":[-10.33429999997812,6.664299999612736]}},{"type":"Feature","properties":{"name":"Cavalla"},"geometry":{"type":"Point","coordinates":[-7.588699999743833,4.363699999800906]}},{"type":"Feature","properties":{"name":"Pullah"},"geometry":{"type":"Point","coordinates":[-7.647299999707698,4.40350000028456]}},{"type":"Feature","properties":{"name":"Rock Town"},"geometry":{"type":"Point","coordinates":[-7.782000000066256,4.397100000235611]}},{"type":"Feature","properties":{"name":"Gboloken"},"geometry":{"type":"Point","coordinates":[-7.642299999868307,4.532999999624185]}},{"type":"Feature","properties":{"name":"Feloken"},"geometry":{"type":"Point","coordinates":[-7.866200000064021,5.067300000089682]}},{"type":"Feature","properties":{"name":"Rock Town Kunokudi"},"geometry":{"type":"Point","coordinates":[-7.617200000402701,4.645100000328818]}},{"type":"Feature","properties":{"name":"Yeamai"},"geometry":{"type":"Point","coordinates":[-10.235299999695282,6.747300000396296]}},{"type":"Feature","properties":{"name":"Sodoken"},"geometry":{"type":"Point","coordinates":[-7.704099999717052,4.524100000389332]}},{"type":"Feature","properties":{"name":"Yookudi"},"geometry":{"type":"Point","coordinates":[-7.601000000029859,4.44520000027021]}},{"type":"Feature","properties":{"name":"CRC Medical Center"},"geometry":{"type":"Point","coordinates":[-7.662600000274852,4.575799999920894]}},{"type":"Feature","properties":{"name":"St. Francis"},"geometry":{"type":"Point","coordinates":[-7.670799999989094,4.553000000128045]}},{"type":"Feature","properties":{"name":"Sacred Heart"},"geometry":{"type":"Point","coordinates":[-7.708399999635625,4.379799999581744]}},{"type":"Feature","properties":{"name":"J.J. Dossen"},"geometry":{"type":"Point","coordinates":[-7.710500000203208,4.877399999901379]}},{"type":"Feature","properties":{"name":"Barraken"},"geometry":{"type":"Point","coordinates":[-7.664000000349218,4.496599999549457]}},{"type":"Feature","properties":{"name":"Newaken"},"geometry":{"type":"Point","coordinates":[-7.908499999729409,4.888499999559024]}},{"type":"Feature","properties":{"name":"Fish Town"},"geometry":{"type":"Point","coordinates":[-7.817755892675475,4.424451582704183]}},{"type":"Feature","properties":{"name":"Pougbaken"},"geometry":{"type":"Point","coordinates":[-7.755400000325982,4.755499999791487]}},{"type":"Feature","properties":{"name":"Pleebo"},"geometry":{"type":"Point","coordinates":[-7.671900000221373,4.585300000254676]}},{"type":"Feature","properties":{"name":"Yediaken"},"geometry":{"type":"Point","coordinates":[-7.664496284619061,4.67658101838955]}},{"type":"Feature","properties":{"name":"Karloken"},"geometry":{"type":"Point","coordinates":[-7.733999999850869,4.803100000327796]}},{"type":"Feature","properties":{"name":"Manolu RCC"},"geometry":{"type":"Point","coordinates":[-7.718999999843479,4.719600000114058]}},{"type":"Feature","properties":{"name":"Boniken"},"geometry":{"type":"Point","coordinates":[-7.681500000213736,4.641600000225048]}},{"type":"Feature","properties":{"name":"Gbawiliken"},"geometry":{"type":"Point","coordinates":[-7.849400000333573,4.990500000366713]}},{"type":"Feature","properties":{"name":"Glofarken"},"geometry":{"type":"Point","coordinates":[-7.897799999745753,4.948899999592136]}},{"type":"Feature","properties":{"name":"Stockton Creek"},"geometry":{"type":"Point","coordinates":[-10.779999999748794,6.37219999955082]}},{"type":"Feature","properties":{"name":"Jaimaca Road"},"geometry":{"type":"Point","coordinates":[-10.782700000405548,6.343399999656379]}},{"type":"Feature","properties":{"name":"Juduken"},"geometry":{"type":"Point","coordinates":[-7.938700000036122,5.047100000022323]}},{"type":"Feature","properties":{"name":"Father Lee Maternity"},"geometry":{"type":"Point","coordinates":[-10.756600000241416,6.391100000450813]}},{"type":"Feature","properties":{"name":"Gloring"},"geometry":{"type":"Point","coordinates":[-10.787300000006796,6.372099999963558]}},{"type":"Feature","properties":{"name":"Sarah P. Smith Maternity"},"geometry":{"type":"Point","coordinates":[-10.726799999682461,6.324900000306916]}},{"type":"Feature","properties":{"name":"Bushrod Island Comm"},"geometry":{"type":"Point","coordinates":[-10.785699999621727,6.344599999580591]}},{"type":"Feature","properties":{"name":"Lofa Medical"},"geometry":{"type":"Point","coordinates":[-10.711999999808661,6.30500000039112]}},{"type":"Feature","properties":{"name":"P.K. Nyansaiye Medical"},"geometry":{"type":"Point","coordinates":[-10.698699999826051,6.283300000091379]}},{"type":"Feature","properties":{"name":"Liberty"},"geometry":{"type":"Point","coordinates":[-10.704200000134152,6.26310000014593]}},{"type":"Feature","properties":{"name":"Medicover"},"geometry":{"type":"Point","coordinates":[-10.680899999561586,6.295899999570604]}},{"type":"Feature","properties":{"name":"AF Russell"},"geometry":{"type":"Point","coordinates":[-10.726531706101557,6.423531725164473]}},{"type":"Feature","properties":{"name":"Orphan Grain Train Medical"},"geometry":{"type":"Point","coordinates":[-10.718300000136004,6.305800000089311]}},{"type":"Feature","properties":{"name":"Mother & Child"},"geometry":{"type":"Point","coordinates":[-10.775000000167383,6.345200000436893]}},{"type":"Feature","properties":{"name":"Kissi Bendu"},"geometry":{"type":"Point","coordinates":[-10.687700000214466,6.290199999907291]}},{"type":"Feature","properties":{"name":"P & S Vision"},"geometry":{"type":"Point","coordinates":[-10.67060000018477,6.310399999769915]}},{"type":"Feature","properties":{"name":"Providence"},"geometry":{"type":"Point","coordinates":[-10.687800000404648,6.292800000152634]}},{"type":"Feature","properties":{"name":"JFK Medical Center"},"geometry":{"type":"Point","coordinates":[-10.774199999798604,6.287299999953953]}},{"type":"Feature","properties":{"name":"God Will Health"},"geometry":{"type":"Point","coordinates":[-10.772000000323073,6.292800000060815]}},{"type":"Feature","properties":{"name":"Tropical"},"geometry":{"type":"Point","coordinates":[-10.787299999676097,6.348699999668407]}},{"type":"Feature","properties":{"name":"Snapper Hill"},"geometry":{"type":"Point","coordinates":[-10.809400000024452,6.319600000009971]}},{"type":"Feature","properties":{"name":"Peneta"},"geometry":{"type":"Point","coordinates":[-10.708799999745185,6.309900000261396]}},{"type":"Feature","properties":{"name":"Dagmon"},"geometry":{"type":"Point","coordinates":[-10.7600999995741,6.292000000205453]}},{"type":"Feature","properties":{"name":"Iron Factory Community"},"geometry":{"type":"Point","coordinates":[-10.762499999675244,6.336600000339034]}},{"type":"Feature","properties":{"name":"Greater Love"},"geometry":{"type":"Point","coordinates":[-10.77839999990422,6.295400000450539]}},{"type":"Feature","properties":{"name":"Ahmadyya"},"geometry":{"type":"Point","coordinates":[-10.784100000362541,6.292200000443322]}},{"type":"Feature","properties":{"name":"St. John Medical"},"geometry":{"type":"Point","coordinates":[-10.696500000415387,6.261500000112331]}},{"type":"Feature","properties":{"name":"Rock Hole Community"},"geometry":{"type":"Point","coordinates":[-10.689500000400079,6.258099999940544]}},{"type":"Feature","properties":{"name":"JAW Community"},"geometry":{"type":"Point","coordinates":[-10.740999999753829,6.327900000006574]}},{"type":"Feature","properties":{"name":"Trinity Maternity"},"geometry":{"type":"Point","coordinates":[-10.792100000225018,6.336299999906135]}},{"type":"Feature","properties":{"name":"New kru town catholic"},"geometry":{"type":"Point","coordinates":[-10.790100000260676,6.368799999728113]}},{"type":"Feature","properties":{"name":"Milad"},"geometry":{"type":"Point","coordinates":[-10.735300000054588,6.355699999976656]}},{"type":"Feature","properties":{"name":"St. Paul Bridge Comm"},"geometry":{"type":"Point","coordinates":[-10.78259999969972,6.390299999816608]}},{"type":"Feature","properties":{"name":"New Community"},"geometry":{"type":"Point","coordinates":[-10.785699999694016,6.398399999571425]}},{"type":"Feature","properties":{"name":"Havious-Julius Green"},"geometry":{"type":"Point","coordinates":[-10.775800000424905,6.433400000061799]}},{"type":"Feature","properties":{"name":"R C Marshall"},"geometry":{"type":"Point","coordinates":[-10.778299999858929,6.413099999855775]}},{"type":"Feature","properties":{"name":"Elder John P. Dom(?)"},"geometry":{"type":"Point","coordinates":[-10.791700000138142,6.375200000382254]}},{"type":"Feature","properties":{"name":"Health-Line"},"geometry":{"type":"Point","coordinates":[-10.751800000339962,6.343400000291253]}},{"type":"Feature","properties":{"name":"Wonjah Smith Memorial"},"geometry":{"type":"Point","coordinates":[-10.784200000434586,6.352300000043508]}},{"type":"Feature","properties":{"name":"LPRC Community"},"geometry":{"type":"Point","coordinates":[-10.733099999913058,6.328299999975091]}},{"type":"Feature","properties":{"name":"Whole Life Comm."},"geometry":{"type":"Point","coordinates":[-10.783400000353451,6.35300000043239]}},{"type":"Feature","properties":{"name":"Bishop Collins"},"geometry":{"type":"Point","coordinates":[-10.780800000114699,6.357899999993402]}},{"type":"Feature","properties":{"name":"SOS"},"geometry":{"type":"Point","coordinates":[-10.74940000042429,6.275299999877541]}},{"type":"Feature","properties":{"name":"Barnersville"},"geometry":{"type":"Point","coordinates":[-10.737099999839366,6.358199999876915]}},{"type":"Feature","properties":{"name":"Pool of Bethesda"},"geometry":{"type":"Point","coordinates":[-10.680299999600429,6.301200000001876]}},{"type":"Feature","properties":{"name":"Pastor Fred Davis"},"geometry":{"type":"Point","coordinates":[-10.687300000385685,6.271600000312574]}},{"type":"Feature","properties":{"name":"SARCO Medical"},"geometry":{"type":"Point","coordinates":[-10.78189999989271,6.384700000407744]}},{"type":"Feature","properties":{"name":"SLEMP"},"geometry":{"type":"Point","coordinates":[-10.690900000236743,6.304100000416074]}},{"type":"Feature","properties":{"name":"Peace Home Medical"},"geometry":{"type":"Point","coordinates":[-10.704499999819994,6.296599999550151]}},{"type":"Feature","properties":{"name":"Banjor Comm."},"geometry":{"type":"Point","coordinates":[-10.796900000406758,6.41060000029719]}},{"type":"Feature","properties":{"name":"Medical Laboratory"},"geometry":{"type":"Point","coordinates":[-10.786299999601225,6.294300000090797]}},{"type":"Feature","properties":{"name":"Wahwahim"},"geometry":{"type":"Point","coordinates":[-10.727999999720804,6.332099999552744]}},{"type":"Feature","properties":{"name":"Blamacee Community"},"geometry":{"type":"Point","coordinates":[-10.814899999679044,6.438199999875849]}},{"type":"Feature","properties":{"name":"Sets Maternity"},"geometry":{"type":"Point","coordinates":[-10.699999999964831,6.249899999920359]}},{"type":"Feature","properties":{"name":"Imani House"},"geometry":{"type":"Point","coordinates":[-10.787900000029413,6.438399999702383]}},{"type":"Feature","properties":{"name":"Trinity Healing Temple"},"geometry":{"type":"Point","coordinates":[-10.188299999864574,6.336200000354476]}},{"type":"Feature","properties":{"name":"Sis. Barbara"},"geometry":{"type":"Point","coordinates":[-10.735300000057711,6.326200000222957]}},{"type":"Feature","properties":{"name":"Old Road Community"},"geometry":{"type":"Point","coordinates":[-10.749999999615063,6.283799999728418]}},{"type":"Feature","properties":{"name":"Barnersville Community"},"geometry":{"type":"Point","coordinates":[-10.725400000136013,6.37209999985837]}},{"type":"Feature","properties":{"name":"Shirley Gremyache"},"geometry":{"type":"Point","coordinates":[-10.689800000024199,6.240000000015622]}},{"type":"Feature","properties":{"name":"Agape Health"},"geometry":{"type":"Point","coordinates":[-10.679300000205522,6.272300000337164]}},{"type":"Feature","properties":{"name":"St. Benedict Menni"},"geometry":{"type":"Point","coordinates":[-10.694500000107531,6.314199999851073]}},{"type":"Feature","properties":{"name":"FPAL"},"geometry":{"type":"Point","coordinates":[-10.777100000163298,6.288499999998447]}},{"type":"Feature","properties":{"name":"Trinity Healing Temple"},"geometry":{"type":"Point","coordinates":[-10.732299999640507,6.315999999836821]}},{"type":"Feature","properties":{"name":"Ger-Lib"},"geometry":{"type":"Point","coordinates":[-10.697599999960458,6.29780000035675]}},{"type":"Feature","properties":{"name":"Life Care Health Center"},"geometry":{"type":"Point","coordinates":[-10.661000000410098,6.293299999628278]}},{"type":"Feature","properties":{"name":"Forkays Maternity (Barnersville)"},"geometry":{"type":"Point","coordinates":[-10.735399999701029,6.364200000061278]}},{"type":"Feature","properties":{"name":"Ma Tuwor"},"geometry":{"type":"Point","coordinates":[-10.728100000338948,6.322299999967711]}},{"type":"Feature","properties":{"name":"Marenna Community"},"geometry":{"type":"Point","coordinates":[-10.764700000433876,6.285899999594197]}},{"type":"Feature","properties":{"name":"Vision for the hopelessness"},"geometry":{"type":"Point","coordinates":[-10.668100000374151,6.240399999797542]}},{"type":"Feature","properties":{"name":"Medlink"},"geometry":{"type":"Point","coordinates":[-10.806999999850825,6.316899999866986]}},{"type":"Feature","properties":{"name":"Dr. Benjamin Harris"},"geometry":{"type":"Point","coordinates":[-10.808400000125813,6.313000000045424]}},{"type":"Feature","properties":{"name":"Sam Mini"},"geometry":{"type":"Point","coordinates":[-10.686599999929109,6.295799999566393]}},{"type":"Feature","properties":{"name":"JDJ Women&Children"},"geometry":{"type":"Point","coordinates":[-10.706699999672876,6.3029999998242]}},{"type":"Feature","properties":{"name":"Richards Adams Med Center"},"geometry":{"type":"Point","coordinates":[-10.800300000296753,6.310600000320744]}},{"type":"Feature","properties":{"name":"Harrisburg"},"geometry":{"type":"Point","coordinates":[-10.45299999992401,6.489600000434274]}},{"type":"Feature","properties":{"name":"Faith Medical Laboratory II"},"geometry":{"type":"Point","coordinates":[-10.790199999696245,6.40329999977829]}},{"type":"Feature","properties":{"name":"Vicmah Maternity"},"geometry":{"type":"Point","coordinates":[-10.710399999993998,6.30809999993979]}},{"type":"Feature","properties":{"name":"Crozierville"},"geometry":{"type":"Point","coordinates":[-10.635800000045647,6.453999999740252]}},{"type":"Feature","properties":{"name":"Mawah Medical"},"geometry":{"type":"Point","coordinates":[-10.800900000228268,6.325199999923418]}},{"type":"Feature","properties":{"name":"Johnsonville"},"geometry":{"type":"Point","coordinates":[-10.685299999634738,6.354100000222426]}},{"type":"Feature","properties":{"name":"Dayass Mini"},"geometry":{"type":"Point","coordinates":[-10.764900000164833,6.285599999654456]}},{"type":"Feature","properties":{"name":"Kebeh Poly"},"geometry":{"type":"Point","coordinates":[-10.810900000099638,6.319800000200719]}},{"type":"Feature","properties":{"name":"Stanko Medical"},"geometry":{"type":"Point","coordinates":[-10.721700000069875,6.332299999686343]}},{"type":"Feature","properties":{"name":"Central Prison"},"geometry":{"type":"Point","coordinates":[-10.807336966001973,6.309055105446642]}},{"type":"Feature","properties":{"name":"R H Ferguson"},"geometry":{"type":"Point","coordinates":[-10.730200000157613,6.324899999960658]}},{"type":"Feature","properties":{"name":"Star of the Sea"},"geometry":{"type":"Point","coordinates":[-10.8042999995782,6.328500000041853]}},{"type":"Feature","properties":{"name":"Bensonville"},"geometry":{"type":"Point","coordinates":[-10.614200000332145,6.447200000276663]}},{"type":"Feature","properties":{"name":"Eulysa"},"geometry":{"type":"Point","coordinates":[-10.804499999570742,6.315399999619045]}},{"type":"Feature","properties":{"name":"Kingsville"},"geometry":{"type":"Point","coordinates":[-10.476600000287563,6.424099999820338]}},{"type":"Feature","properties":{"name":"Careysburg"},"geometry":{"type":"Point","coordinates":[-10.547600000185392,6.402300000271414]}},{"type":"Feature","properties":{"name":"Goba"},"geometry":{"type":"Point","coordinates":[-10.441499999888004,6.487599999989577]}},{"type":"Feature","properties":{"name":"REHAB\/Kenejah"},"geometry":{"type":"Point","coordinates":[-10.67570000003467,6.245300000156001]}},{"type":"Feature","properties":{"name":"Nyehn"},"geometry":{"type":"Point","coordinates":[-10.489399999800812,6.54700000005589]}},{"type":"Feature","properties":{"name":"William Booth"},"geometry":{"type":"Point","coordinates":[-10.690000000437983,6.295300000030225]}},{"type":"Feature","properties":{"name":"Koon Town"},"geometry":{"type":"Point","coordinates":[-10.540280555568838,6.604162012356002]}},{"type":"Feature","properties":{"name":"Dr. Nehme"},"geometry":{"type":"Point","coordinates":[-10.807899999959714,6.314200000056185]}},{"type":"Feature","properties":{"name":"Clara Town"},"geometry":{"type":"Point","coordinates":[-10.798100000186437,6.328699999728963]}},{"type":"Feature","properties":{"name":"Zanna Town"},"geometry":{"type":"Point","coordinates":[-10.412199999667305,6.714199999890901]}},{"type":"Feature","properties":{"name":"Dental and Face"},"geometry":{"type":"Point","coordinates":[-10.807400000339197,6.315000000290964]}},{"type":"Feature","properties":{"name":"SDA Cooper"},"geometry":{"type":"Point","coordinates":[-10.780599999973155,6.29650000004456]}},{"type":"Feature","properties":{"name":"Few Diagnostic"},"geometry":{"type":"Point","coordinates":[-10.788999999676948,6.294699999833354]}},{"type":"Feature","properties":{"name":"New Georgia"},"geometry":{"type":"Point","coordinates":[-10.756499999995633,6.350999999866029]}},{"type":"Feature","properties":{"name":"MALAG"},"geometry":{"type":"Point","coordinates":[-10.807600000281868,6.318199999633773]}},{"type":"Feature","properties":{"name":"Kpallah"},"geometry":{"type":"Point","coordinates":[-10.813100000143745,6.428200000389228]}},{"type":"Feature","properties":{"name":"Poly"},"geometry":{"type":"Point","coordinates":[-10.774800000324227,6.288799999812322]}},{"type":"Feature","properties":{"name":"Catholic"},"geometry":{"type":"Point","coordinates":[-10.754700000348858,6.273799999559701]}},{"type":"Feature","properties":{"name":"Arthington"},"geometry":{"type":"Point","coordinates":[-10.765700000227241,6.507199999968861]}},{"type":"Feature","properties":{"name":"Louisiana"},"geometry":{"type":"Point","coordinates":[-10.702899999618385,6.433899999637667]}},{"type":"Feature","properties":{"name":"Supermarket Community"},"geometry":{"type":"Point","coordinates":[-10.793999999717549,6.335300000258651]}},{"type":"Feature","properties":{"name":"Central Matadi"},"geometry":{"type":"Point","coordinates":[-10.768699999622223,6.299999999880068]}},{"type":"Feature","properties":{"name":"PUCC"},"geometry":{"type":"Point","coordinates":[-10.773699999933596,6.28509999993918]}},{"type":"Feature","properties":{"name":"Bromely Community"},"geometry":{"type":"Point","coordinates":[-10.744100000063039,6.413500000377939]}},{"type":"Feature","properties":{"name":"Gardnersville"},"geometry":{"type":"Point","coordinates":[-10.727699999969161,6.317700000001124]}},{"type":"Feature","properties":{"name":"ELWA"},"geometry":{"type":"Point","coordinates":[-10.696799999624451,6.239399999866394]}},{"type":"Feature","properties":{"name":"Breath of Life"},"geometry":{"type":"Point","coordinates":[-10.758900000381447,6.297499999582116]}},{"type":"Feature","properties":{"name":"Grey Stone Comm"},"geometry":{"type":"Point","coordinates":[-10.810430183562204,6.317625012540256]}},{"type":"Feature","properties":{"name":"Pacific Medical Laboratory"},"geometry":{"type":"Point","coordinates":[-10.807599999907026,6.317799999824287]}},{"type":"Feature","properties":{"name":"Redemption"},"geometry":{"type":"Point","coordinates":[-10.791799999815645,6.369899999619193]}},{"type":"Feature","properties":{"name":"Benson"},"geometry":{"type":"Point","coordinates":[-10.690000000404423,6.283499999827711]}},{"type":"Feature","properties":{"name":"Helthon Community"},"geometry":{"type":"Point","coordinates":[-10.744400000085863,6.343199999552408]}},{"type":"Feature","properties":{"name":"Ma Watta Maternity&Eye"},"geometry":{"type":"Point","coordinates":[-10.692199999837568,6.281300000196555]}},{"type":"Feature","properties":{"name":"Duport Road"},"geometry":{"type":"Point","coordinates":[-10.689999999804115,6.276099999972596]}},{"type":"Feature","properties":{"name":"FREDAI Medical Eye"},"geometry":{"type":"Point","coordinates":[-10.692300000002682,6.28169999963213]}},{"type":"Feature","properties":{"name":"Faith Medical Laboratory"},"geometry":{"type":"Point","coordinates":[-10.693300000346792,6.292800000282435]}},{"type":"Feature","properties":{"name":"Red Cross"},"geometry":{"type":"Point","coordinates":[-10.805199999725613,6.309500000401864]}},{"type":"Feature","properties":{"name":"Joanna Maternity"},"geometry":{"type":"Point","coordinates":[-10.807900000185596,6.307399999974617]}},{"type":"Feature","properties":{"name":"Gates of Hope"},"geometry":{"type":"Point","coordinates":[-10.690700000386,6.286699999903809]}},{"type":"Feature","properties":{"name":"Hydro"},"geometry":{"type":"Point","coordinates":[-10.750299999661058,6.278900000213654]}},{"type":"Feature","properties":{"name":"Chocolate City"},"geometry":{"type":"Point","coordinates":[-10.75240000019503,6.329200000047724]}},{"type":"Feature","properties":{"name":"Sis. Agnes H C"},"geometry":{"type":"Point","coordinates":[-10.746600000440843,6.335999999896036]}},{"type":"Feature","properties":{"name":"Paynesville MERCI"},"geometry":{"type":"Point","coordinates":[-10.695900000426555,6.284800000443465]}},{"type":"Feature","properties":{"name":"Kpaytuo"},"geometry":{"type":"Point","coordinates":[-8.815700000035866,6.81429999994607]}},{"type":"Feature","properties":{"name":"YMCA"},"geometry":{"type":"Point","coordinates":[-8.544299999868825,7.574699999857096]}},{"type":"Feature","properties":{"name":"Duo"},"geometry":{"type":"Point","coordinates":[-9.118188230398735,6.928405695480663]}},{"type":"Feature","properties":{"name":"Kwendin"},"geometry":{"type":"Point","coordinates":[-8.948900000299791,6.454599999899113]}},{"type":"Feature","properties":{"name":"Mehnla"},"geometry":{"type":"Point","coordinates":[-8.978300000047597,6.815799999887699]}},{"type":"Feature","properties":{"name":"Slipway"},"geometry":{"type":"Point","coordinates":[-10.798599999678235,6.315999999846159]}},{"type":"Feature","properties":{"name":"God Will Health"},"geometry":{"type":"Point","coordinates":[-10.796100000015015,6.306100000216981]}},{"type":"Feature","properties":{"name":"Cocopa"},"geometry":{"type":"Point","coordinates":[-8.865200000147416,7.102700000406805]}},{"type":"Feature","properties":{"name":"Karnwee"},"geometry":{"type":"Point","coordinates":[-8.85130000005841,7.027000000440614]}},{"type":"Feature","properties":{"name":"Saclepea Mission"},"geometry":{"type":"Point","coordinates":[-8.841799999880944,6.955099999580039]}},{"type":"Feature","properties":{"name":"Flumpa"},"geometry":{"type":"Point","coordinates":[-8.911599999594364,7.108199999942737]}},{"type":"Feature","properties":{"name":"Duayee"},"geometry":{"type":"Point","coordinates":[-8.953000000381088,6.879599999548703]}},{"type":"Feature","properties":{"name":"Kpain"},"geometry":{"type":"Point","coordinates":[-9.076300000117877,7.108200000299005]}},{"type":"Feature","properties":{"name":"Bunadin"},"geometry":{"type":"Point","coordinates":[-9.074099999989382,7.010199999552963]}},{"type":"Feature","properties":{"name":"Duoplay"},"geometry":{"type":"Point","coordinates":[-8.42080000040599,7.286899999558407]}},{"type":"Feature","properties":{"name":"Flumpa Mission"},"geometry":{"type":"Point","coordinates":[-8.920399999745044,7.111599999599977]}},{"type":"Feature","properties":{"name":"Saclepea Comprehensive"},"geometry":{"type":"Point","coordinates":[-8.845099999581519,6.975599999760527]}},{"type":"Feature","properties":{"name":"Garplay"},"geometry":{"type":"Point","coordinates":[-8.462300000431181,7.122600000023343]}},{"type":"Feature","properties":{"name":"Ganta Methodist"},"geometry":{"type":"Point","coordinates":[-8.977700000174844,7.235100000398429]}},{"type":"Feature","properties":{"name":"St. Marys"},"geometry":{"type":"Point","coordinates":[-8.704400000089905,7.364700000037487]}},{"type":"Feature","properties":{"name":"Hope Village"},"geometry":{"type":"Point","coordinates":[-8.969099999861729,7.226399999682966]}},{"type":"Feature","properties":{"name":"Power House"},"geometry":{"type":"Point","coordinates":[-8.985100000184634,7.232299999656366]}},{"type":"Feature","properties":{"name":"Youhnlay"},"geometry":{"type":"Point","coordinates":[-8.447400000318984,7.340900000141249]}},{"type":"Feature","properties":{"name":"K. L. Foundation"},"geometry":{"type":"Point","coordinates":[-8.979300000376696,7.221099999572474]}},{"type":"Feature","properties":{"name":"Gbeivonwea"},"geometry":{"type":"Point","coordinates":[-8.416799999719066,7.081699999741545]}},{"type":"Feature","properties":{"name":"Agape"},"geometry":{"type":"Point","coordinates":[-8.986199999653932,7.226599999755069]}},{"type":"Feature","properties":{"name":"Vayenglay"},"geometry":{"type":"Point","coordinates":[-8.562899999697793,7.144600000426838]}},{"type":"Feature","properties":{"name":"New Man"},"geometry":{"type":"Point","coordinates":[-8.993099999637799,7.23040000018746]}},{"type":"Feature","properties":{"name":"Karnplay"},"geometry":{"type":"Point","coordinates":[-8.504199999872665,7.264699999914591]}},{"type":"Feature","properties":{"name":"Zorgowee"},"geometry":{"type":"Point","coordinates":[-8.578500000318172,7.342499999986124]}},{"type":"Feature","properties":{"name":"Lugbehyee"},"geometry":{"type":"Point","coordinates":[-8.62010000011133,7.606400000025618]}},{"type":"Feature","properties":{"name":"Duo Tiayee"},"geometry":{"type":"Point","coordinates":[-8.658899999770327,7.247099999913339]}},{"type":"Feature","properties":{"name":"Ganta Community"},"geometry":{"type":"Point","coordinates":[-9.001299999602669,7.22979999968948]}},{"type":"Feature","properties":{"name":"Beo Yoolar"},"geometry":{"type":"Point","coordinates":[-8.321400000365083,7.048199999793639]}},{"type":"Feature","properties":{"name":"Loguatuo"},"geometry":{"type":"Point","coordinates":[-8.365799999821377,7.025799999782402]}},{"type":"Feature","properties":{"name":"Arcelor Mittal"},"geometry":{"type":"Point","coordinates":[-8.537900000015137,7.584799999587086]}},{"type":"Feature","properties":{"name":"Ganta Rehabiliation"},"geometry":{"type":"Point","coordinates":[-8.969899999860353,7.341099999711075]}},{"type":"Feature","properties":{"name":"Goagortuo"},"geometry":{"type":"Point","coordinates":[-8.453700000216646,7.410499999928339]}},{"type":"Feature","properties":{"name":"Beadatuo"},"geometry":{"type":"Point","coordinates":[-8.597599999558742,6.990399999635492]}},{"type":"Feature","properties":{"name":"G. W. Harley"},"geometry":{"type":"Point","coordinates":[-8.714248877629178,7.357521468597183]}},{"type":"Feature","properties":{"name":"Wehplay"},"geometry":{"type":"Point","coordinates":[-8.628099999888544,7.077800000036053]}},{"type":"Feature","properties":{"name":"Payee Comm."},"geometry":{"type":"Point","coordinates":[-8.73490000036047,7.112900000065818]}},{"type":"Feature","properties":{"name":"Bahn Mission"},"geometry":{"type":"Point","coordinates":[-8.724399999630116,7.020900000210187]}},{"type":"Feature","properties":{"name":"Gbloulay"},"geometry":{"type":"Point","coordinates":[-8.59509999957322,6.894400000085132]}},{"type":"Feature","properties":{"name":"Zoegeh Medical Center"},"geometry":{"type":"Point","coordinates":[-8.54700000029413,6.95190000036148]}},{"type":"Feature","properties":{"name":"Bahn"},"geometry":{"type":"Point","coordinates":[-8.730200000412173,7.02960000019759]}},{"type":"Feature","properties":{"name":"Buutuo"},"geometry":{"type":"Point","coordinates":[-8.343400000097425,6.830200000109099]}},{"type":"Feature","properties":{"name":"Lepula"},"geometry":{"type":"Point","coordinates":[-8.417699999815721,6.979199999738986]}},{"type":"Feature","properties":{"name":"New Yourpea"},"geometry":{"type":"Point","coordinates":[-8.486500000370823,6.725600000018898]}},{"type":"Feature","properties":{"name":"Bonlay"},"geometry":{"type":"Point","coordinates":[-8.547699999851744,6.823400000110816]}},{"type":"Feature","properties":{"name":"Gblarlay"},"geometry":{"type":"Point","coordinates":[-8.428600000267881,6.722800000109633]}},{"type":"Feature","properties":{"name":"Graie"},"geometry":{"type":"Point","coordinates":[-8.771100000298072,6.708200000444824]}},{"type":"Feature","properties":{"name":"Zuolay"},"geometry":{"type":"Point","coordinates":[-8.7875000001538,6.675499999580644]}},{"type":"Feature","properties":{"name":"Zekepa"},"geometry":{"type":"Point","coordinates":[-9.116899999864152,6.646000000132393]}},{"type":"Feature","properties":{"name":"Zuaplay"},"geometry":{"type":"Point","coordinates":[-8.874799999762862,6.741199999670902]}},{"type":"Feature","properties":{"name":"Toweh Town"},"geometry":{"type":"Point","coordinates":[-8.667299999599649,6.794200000081416]}},{"type":"Feature","properties":{"name":"Consolata"},"geometry":{"type":"Point","coordinates":[-8.863699999952592,6.487999999918912]}},{"type":"Feature","properties":{"name":"Dialah"},"geometry":{"type":"Point","coordinates":[-8.698700000315249,6.476799999933136]}},{"type":"Feature","properties":{"name":"Zodru"},"geometry":{"type":"Point","coordinates":[-8.571100000415191,6.569900000327667]}},{"type":"Feature","properties":{"name":"Mid Baptist"},"geometry":{"type":"Point","coordinates":[-8.8690000003214,6.495000000247684]}},{"type":"Feature","properties":{"name":"Timbo Compound"},"geometry":{"type":"Point","coordinates":[-9.718900000040783,5.566800000006444]}},{"type":"Feature","properties":{"name":"Boegeesay"},"geometry":{"type":"Point","coordinates":[-9.321600000329319,6.152999999781347]}},{"type":"Feature","properties":{"name":"Gozohn"},"geometry":{"type":"Point","coordinates":[-9.276499999713494,6.260000000004061]}},{"type":"Feature","properties":{"name":"Zammie"},"geometry":{"type":"Point","coordinates":[-9.228599999593582,5.853599999795546]}},{"type":"Feature","properties":{"name":"Kayah Community"},"geometry":{"type":"Point","coordinates":[-9.623500000410887,5.89929999981969]}},{"type":"Feature","properties":{"name":"Larkpazee"},"geometry":{"type":"Point","coordinates":[-9.413000000062509,6.090300000425056]}},{"type":"Feature","properties":{"name":"Gbediah"},"geometry":{"type":"Point","coordinates":[-9.638800000051672,5.739099999603605]}},{"type":"Feature","properties":{"name":"Dorbor Community"},"geometry":{"type":"Point","coordinates":[-9.418299999805718,5.867300000248142]}},{"type":"Feature","properties":{"name":"St. Francis"},"geometry":{"type":"Point","coordinates":[-9.580099999953898,5.470200000045285]}},{"type":"Feature","properties":{"name":"Charile Town"},"geometry":{"type":"Point","coordinates":[-9.620600000002185,5.663400000169721]}},{"type":"Feature","properties":{"name":"OBS Mission"},"geometry":{"type":"Point","coordinates":[-9.618500000359184,5.520100000281581]}},{"type":"Feature","properties":{"name":"Kangbo"},"geometry":{"type":"Point","coordinates":[-9.202899999667286,6.268800000301731]}},{"type":"Feature","properties":{"name":"ITI"},"geometry":{"type":"Point","coordinates":[-9.323199999983812,5.615800000119754]}},{"type":"Feature","properties":{"name":"Sahyah"},"geometry":{"type":"Point","coordinates":[-9.542400000383504,5.845200000315903]}},{"type":"Feature","properties":{"name":"Neezuin"},"geometry":{"type":"Point","coordinates":[-9.502200000070525,5.68739999966385]}},{"type":"Feature","properties":{"name":"Gblossoe"},"geometry":{"type":"Point","coordinates":[-9.584599999845404,5.775999999772397]}},{"type":"Feature","properties":{"name":"Fish Town"},"geometry":{"type":"Point","coordinates":[-7.880400000226144,5.197000000297714]}},{"type":"Feature","properties":{"name":"Bodowhea"},"geometry":{"type":"Point","coordinates":[-9.401400000304857,6.003700000302476]}},{"type":"Feature","properties":{"name":"Juwelbo"},"geometry":{"type":"Point","coordinates":[-7.825200000090077,5.408800000023882]}},{"type":"Feature","properties":{"name":"Jarkaken"},"geometry":{"type":"Point","coordinates":[-7.995999999796193,5.377300000233652]}},{"type":"Feature","properties":{"name":"Sarbo Sweaken"},"geometry":{"type":"Point","coordinates":[-7.732500000225278,5.131499999668231]}},{"type":"Feature","properties":{"name":"Cherboken"},"geometry":{"type":"Point","coordinates":[-8.076900000450292,5.264999999773965]}},{"type":"Feature","properties":{"name":"River Gbeh"},"geometry":{"type":"Point","coordinates":[-7.66450000031487,5.211599999784066]}},{"type":"Feature","properties":{"name":"Tuobo"},"geometry":{"type":"Point","coordinates":[-7.659700000039914,5.023300000067692]}},{"type":"Feature","properties":{"name":"Pronoken Town"},"geometry":{"type":"Point","coordinates":[-7.967599999776414,5.184500000282044]}},{"type":"Feature","properties":{"name":"Japroken"},"geometry":{"type":"Point","coordinates":[-7.847100000083182,5.288799999816337]}},{"type":"Feature","properties":{"name":"Jimmiville"},"geometry":{"type":"Point","coordinates":[-7.621699999868103,4.880500000195075]}},{"type":"Feature","properties":{"name":"Nyaake"},"geometry":{"type":"Point","coordinates":[-7.75969999956594,4.485100000077672]}},{"type":"Feature","properties":{"name":"St. Kizito"},"geometry":{"type":"Point","coordinates":[-8.013400000165319,5.230899999634404]}},{"type":"Feature","properties":{"name":"Putuken"},"geometry":{"type":"Point","coordinates":[-8.034500000094628,5.345899999980211]}},{"type":"Feature","properties":{"name":"Killepo"},"geometry":{"type":"Point","coordinates":[-8.093300000039211,5.491800000439314]}},{"type":"Feature","properties":{"name":"Gbeapo"},"geometry":{"type":"Point","coordinates":[-8.013899999794775,5.234699999883445]}},{"type":"Feature","properties":{"name":"Nyenebo"},"geometry":{"type":"Point","coordinates":[-7.817300000310756,4.904000000413467]}},{"type":"Feature","properties":{"name":"Jokoken"},"geometry":{"type":"Point","coordinates":[-8.128899999919865,5.353499999805499]}},{"type":"Feature","properties":{"name":"ENI"},"geometry":{"type":"Point","coordinates":[-8.931692106165409,5.436254845451044]}},{"type":"Feature","properties":{"name":"U-bor"},"geometry":{"type":"Point","coordinates":[-7.508500000093257,5.44080000034707]}},{"type":"Feature","properties":{"name":"Nyennawlicken"},"geometry":{"type":"Point","coordinates":[-8.189700000336078,5.369399999685906]}},{"type":"Feature","properties":{"name":"Lexington"},"geometry":{"type":"Point","coordinates":[-9.038521433727812,5.041312077106025]}},{"type":"Feature","properties":{"name":"Wiah Town"},"geometry":{"type":"Point","coordinates":[-9.001615473345964,5.294137889853539]}},{"type":"Feature","properties":{"name":"Butaw"},"geometry":{"type":"Point","coordinates":[-9.069978493548476,5.119435843426034]}},{"type":"Feature","properties":{"name":"BOPC"},"geometry":{"type":"Point","coordinates":[-9.171508938430513,5.254951826513657]}},{"type":"Feature","properties":{"name":"St. Joseph Catholic"},"geometry":{"type":"Point","coordinates":[-9.04376157625429,5.021888669019181]}},{"type":"Feature","properties":{"name":"Edward Memorial"},"geometry":{"type":"Point","coordinates":[-8.843214371980464,4.899995500551738]}},{"type":"Feature","properties":{"name":"Menweh Walker"},"geometry":{"type":"Point","coordinates":[-8.723490637185694,4.943389156724146]}},{"type":"Feature","properties":{"name":"SRC"},"geometry":{"type":"Point","coordinates":[-8.996363855698291,5.133009539155375]}},{"type":"Feature","properties":{"name":"Panama"},"geometry":{"type":"Point","coordinates":[-8.939443836581017,4.991662580433088]}},{"type":"Feature","properties":{"name":"Voogbardee"},"geometry":{"type":"Point","coordinates":[-8.533336264229593,5.78332375673106]}},{"type":"Feature","properties":{"name":"Pyne Town"},"geometry":{"type":"Point","coordinates":[-8.401011295194492,5.693635931194147]}},{"type":"Feature","properties":{"name":"Pellokon"},"geometry":{"type":"Point","coordinates":[-8.590737783306654,5.678821337046869]}},{"type":"Feature","properties":{"name":"Chebiohs Town"},"geometry":{"type":"Point","coordinates":[-8.633085436258527,5.528853663528691]}},{"type":"Feature","properties":{"name":"Kilo Town"},"geometry":{"type":"Point","coordinates":[-8.972238924042342,5.092561637182607]}},{"type":"Feature","properties":{"name":"Juarzon"},"geometry":{"type":"Point","coordinates":[-8.849866692769353,5.379708607673317]}},{"type":"Feature","properties":{"name":"Roselyn Toe Massaquoi"},"geometry":{"type":"Point","coordinates":[-8.961828353239156,5.374469871369542]}},{"type":"Feature","properties":{"name":"Jacksonville"},"geometry":{"type":"Point","coordinates":[-9.085808022358487,5.412451290872854]}},{"type":"Feature","properties":{"name":"Ducor Free"},"geometry":{"type":"Point","coordinates":[-8.372752416933368,5.263262926412282]}},{"type":"Feature","properties":{"name":"F. J. Grante"},"geometry":{"type":"Point","coordinates":[-9.036796500972965,5.008454871757277]}},{"type":"Feature","properties":{"name":"Saywon Town"},"geometry":{"type":"Point","coordinates":[-8.837621811442382,5.04927202178722]}},{"type":"Feature","properties":{"name":"Drapo"},"geometry":{"type":"Point","coordinates":[-8.776960199042495,5.079189008502174]}},{"type":"Feature","properties":{"name":"Kwitatuzon"},"geometry":{"type":"Point","coordinates":[-8.783700922770583,4.993104335834071]}},{"type":"Feature","properties":{"name":"Tubmanville"},"geometry":{"type":"Point","coordinates":[-8.887763155854822,4.997346096636726]}},{"type":"Feature","properties":{"name":"Kabada"},"geometry":{"type":"Point","coordinates":[-8.849327345336462,4.989639741158012]}},{"type":"Feature","properties":{"name":"Tuzon"},"geometry":{"type":"Point","coordinates":[-8.497318316145339,5.095604526352425]}},{"type":"Feature","properties":{"name":"Jauryen"},"geometry":{"type":"Point","coordinates":[-8.662006096466609,5.092554921379263]}},{"type":"Feature","properties":{"name":"Diyankpo"},"geometry":{"type":"Point","coordinates":[-8.508041587293411,5.040846671818478]}},{"type":"Feature","properties":{"name":"Govt Camp"},"geometry":{"type":"Point","coordinates":[-8.438385654432191,5.035661056185013]}},{"type":"Feature","properties":{"name":null},"geometry":{"type":"Point","coordinates":[-9.896004286896257,7.272265502240924]}},{"type":"Feature","properties":{"name":"Karquekpo"},"geometry":{"type":"Point","coordinates":[-8.651101242256106,4.986018149737593]}}]